,City,Country,Date,Latitude,Longitude,Max temperature,Humidity,Cloudiness,Wind Speed
0,Serang,ID,1638054421,-6.1149,106.1502,74.97,87,100,7.43
1,Atuona,PF,1638054408,-9.8,-139.0333,78.84,72,37,19.89
2,Hermanus,ZA,1638054323,-34.4187,19.2345,64.4,81,31,17.36
3,Hobart,AU,1638054384,-42.8794,147.3294,62.46,55,20,9.22
4,Port Keats,AU,1638054422,-14.25,129.55,86.05,53,100,3.71
5,George Town,MY,1638054391,5.4112,100.3354,76.93,94,20,0.0
6,Nikolskoye,RU,1638054328,59.7035,30.7861,28.29,93,100,12.97
7,Great Yarmouth,GB,1638054423,52.6083,1.7305,43.05,87,98,29.84
8,East London,ZA,1638054402,-33.0153,27.9116,64.51,94,36,4.81
9,Airai,TL,1638054424,-8.9266,125.4092,66.13,81,99,0.74
10,Bengkulu,ID,1638054424,-3.8004,102.2655,76.15,88,100,4.07
11,Yellowknife,CA,1638054362,62.456,-114.3525,-6.61,93,25,5.37
12,Barrow,US,1638054346,71.2906,-156.7887,-12.98,70,20,0.0
13,Lebu,CL,1638054425,-37.6167,-73.65,54.5,77,1,17.94
14,Alta Floresta,BR,1638054427,-9.8756,-56.0861,72.99,95,79,3.36
15,Moerai,PF,1638054427,-22.4333,-151.3333,77.99,79,99,14.41
16,Hay River,CA,1638054428,60.8156,-115.7999,-1.55,92,38,2.42
17,Mataura,NZ,1638054325,-46.1927,168.8643,63.63,38,47,0.4
18,Provideniya,RU,1638054397,64.3833,-173.3,-4.95,84,10,5.68
19,Rikitea,PF,1638054331,-23.1203,-134.9692,76.32,77,11,15.14
20,Kapaa,US,1638054329,22.0752,-159.319,82.38,57,40,14.97
21,Yining,CN,1638054429,29.0361,114.5636,44.85,85,8,0.94
22,Jamestown,US,1638054308,42.097,-79.2353,31.59,86,90,6.91
23,Qaanaaq,GL,1638054336,77.484,-69.3632,1.0,97,100,1.25
24,Oodweyne,SO,1638054430,9.4092,45.064,71.38,47,96,9.78
25,Puerto Ayora,EC,1638054334,-0.7393,-90.3518,70.75,76,80,10.6
26,Punta Arenas,CL,1638054348,-53.15,-70.9167,51.91,62,75,6.91
27,Ayagoz,KZ,1638054350,47.9714,80.4392,0.01,79,2,4.74
28,Alice Springs,AU,1638054431,-23.7,133.8833,71.15,30,1,10.36
29,Emilio Carranza,MX,1638054432,19.9711,-96.6114,71.06,83,66,3.15
30,Shingū,JP,1638054369,33.7333,135.9833,47.39,69,1,4.63
31,Vaini,TO,1638054332,-21.2,-175.2,84.36,84,75,11.5
32,Weihe,CN,1638054433,32.9952,105.3247,41.68,95,100,2.13
33,Portland,US,1638053712,45.5234,-122.6762,59.41,94,90,8.05
34,Flinders,AU,1638054434,-34.5833,150.8552,60.64,81,100,11.54
35,Coxim,BR,1638054434,-18.5067,-54.76,84.16,67,100,4.34
36,Labuhan,ID,1638054435,-6.8844,112.2051,78.06,84,100,10.16
37,Rawson,AR,1638054435,-43.3002,-65.1023,59.72,66,5,13.27
38,Port Pirie,AU,1638054436,-33.1833,138.0167,66.29,36,55,3.87
39,Albany,US,1638054343,42.6001,-73.9662,27.21,65,8,10.98
40,Fort Nelson,CA,1638054436,58.8053,-122.7002,16.92,95,95,2.35
41,Meulaboh,ID,1638054437,4.1363,96.1285,76.05,87,85,5.68
42,Praia da Vitória,PT,1638054392,38.7333,-27.0667,60.46,67,87,9.46
43,Saint Paul Harbor,US,1638054351,57.79,-152.4072,17.11,57,40,12.66
44,Alyangula,AU,1638054363,-13.8483,136.4192,86.02,54,94,6.64
45,Ushuaia,AR,1638054160,-54.8,-68.3,48.87,54,100,4.99
46,Novovorontsovka,UA,1638054438,47.5004,33.9175,46.11,95,19,9.08
47,‘Āhuimanu,US,1638054439,21.4447,-157.8378,82.11,66,75,9.22
48,Makurdi,NG,1638054439,7.7411,8.5121,77.95,36,70,3.4
49,Talnakh,RU,1638054440,69.4865,88.3972,0.0,96,100,9.24
50,San Patricio,US,1638054440,28.017,-97.5169,55.26,74,100,7.52
51,Bluff,NZ,1638054359,-46.6,168.3333,52.7,62,1,4.81
52,Mackay,AU,1638054306,-21.15,149.2,80.71,74,1,5.06
53,Avarua,CK,1638054441,-21.2078,-159.775,80.65,83,75,11.5
54,Saint-Philippe,RE,1638054352,-21.3585,55.7679,76.59,84,59,7.05
55,Hong Kong,HK,1638054335,22.2855,114.1577,67.98,56,84,6.17
56,Black River,JM,1638054442,18.0264,-77.8487,78.75,73,85,3.06
57,Hamilton,US,1638054253,39.1834,-84.5333,45.45,53,20,0.0
58,At-Bashi,KG,1638054443,41.1702,75.8106,9.7,55,0,5.23
59,Padang,ID,1638054444,-0.9492,100.3543,75.25,76,100,3.04
60,Busselton,AU,1638054330,-33.65,115.3333,71.82,52,4,4.7
61,Qasigiannguit,GL,1638054445,68.8193,-51.1922,18.07,86,100,6.22
62,Butaritari,KI,1638054324,3.0707,172.7902,82.15,73,27,19.42
63,Castro,BR,1638054330,-24.7911,-50.0119,68.79,64,15,1.19
64,Cape Canaveral,US,1638054197,28.4058,-80.6048,64.47,78,1,6.91
65,Jumla,NP,1638054446,29.2747,82.1838,37.18,47,0,4.47
66,Longyearbyen,SJ,1638054446,78.2186,15.6401,13.84,67,20,23.02
67,Hofn,IS,1638054447,64.2539,-15.2082,36.25,66,95,17.16
68,Srednekolymsk,RU,1638054447,67.45,153.6833,-38.24,100,31,1.21
69,Faya,SA,1638054346,18.3851,42.4509,54.12,50,0,5.48
70,Kaoma,ZM,1638054448,-14.7833,24.8,64.78,83,70,5.23
71,Harper,LR,1638054448,4.375,-7.7169,79.5,85,61,9.78
72,Marlton,US,1638054305,39.8912,-74.9218,38.89,44,1,4.61
73,Carnarvon,AU,1638054320,-24.8667,113.6333,82.47,26,0,10.36
74,Birao,CF,1638054402,10.2849,22.7882,71.62,20,44,5.84
75,Galle,LK,1638054221,6.0367,80.217,76.75,88,100,4.68
76,Ejea de los Caballeros,ES,1638054450,42.1263,-1.1372,40.19,90,95,22.08
77,Vao,NC,1638054362,-22.6667,167.4833,73.83,90,100,24.0
78,Xiaoshan,CN,1638054450,30.1675,120.2588,51.66,87,0,2.24
79,Le Port,RE,1638054451,-20.9373,55.2919,77.0,84,43,6.11
80,Pochutla,MX,1638054451,15.7432,-96.4661,84.02,58,7,5.68
81,Sitka,US,1638054312,57.0531,-135.33,35.49,87,90,5.75
82,Dubbo,AU,1638054436,-32.25,148.6167,66.33,63,90,19.57
83,Zandvoort,NL,1638054453,52.3749,4.5341,44.55,93,75,2.3
84,Piripiri,BR,1638054453,-4.2733,-41.7769,80.46,66,80,6.02
85,Port Alfred,ZA,1638054338,-33.5906,26.891,64.71,77,36,8.81
86,Saint George,US,1638054356,37.1041,-113.5841,73.87,15,1,0.0
87,Ulladulla,AU,1638054456,-35.35,150.4667,58.84,81,99,9.66
88,Kouroussa,GN,1638054457,10.65,-9.8833,77.16,36,24,1.52
89,Charters Towers,AU,1638054457,-20.1,146.2667,84.58,55,0,11.14
90,Nhulunbuy,AU,1638054458,-12.2333,136.7667,88.41,55,36,5.75
91,Ol'ga,RU,1638054458,43.7444,135.2892,25.77,57,0,5.97
92,Batangafo,CF,1638054307,7.3008,18.2833,72.27,28,64,2.46
93,Cavalcante,BR,1638054459,-13.7975,-47.4583,69.55,90,30,3.6
94,Itarema,BR,1638054459,-2.9248,-39.9167,80.62,77,82,14.32
95,San Quintín,MX,1638054460,30.4833,-115.95,69.75,44,0,9.24
96,Inhambane,MZ,1638054460,-23.865,35.3833,68.29,69,49,9.17
97,Progreso,MX,1638054461,21.2833,-89.6667,80.71,73,48,13.02
98,Port Lincoln,AU,1638054414,-34.7333,135.8667,62.31,70,0,12.03
99,Ponta do Sol,PT,1638054462,32.6667,-17.1,63.23,75,26,5.37
100,Umluj,SA,1638054462,25.0213,37.2685,79.02,53,0,8.95
101,Dickson,US,1638054463,36.077,-87.3878,53.2,35,1,13.8
102,Port Elizabeth,ZA,1638054345,-33.918,25.5701,62.22,73,37,6.89
103,Bredasdorp,ZA,1638054463,-34.5322,20.0403,65.03,69,60,8.39
104,Yangi Marg`ilon,UZ,1638054464,40.4272,71.7189,32.72,80,6,4.61
105,Cape Town,ZA,1638054140,-33.9258,18.4232,63.1,92,85,16.53
106,Rentina,GR,1638054465,40.6574,23.614,54.88,84,100,1.86
107,Cervo,ES,1638054465,43.6702,-7.4101,49.42,65,89,20.45
108,Cabo San Lucas,MX,1638054337,22.8909,-109.9124,73.71,78,90,8.05
109,Necochea,AR,1638054466,-38.5473,-58.7368,61.05,90,100,12.46
110,Kaniama,CD,1638054466,-7.5667,24.1833,65.03,97,93,1.77
111,Gazojak,TM,1638054467,41.1875,61.4036,36.45,51,83,7.47
112,Penha,BR,1638054467,-26.7694,-48.6458,75.07,83,75,9.22
113,Talaya,RU,1638054468,61.3833,152.75,-33.54,94,39,1.23
114,Tiznit Province,MA,1638054468,29.5833,-9.5,51.6,71,0,15.73
115,Salalah,OM,1638054469,17.0151,54.0924,73.49,46,0,3.44
116,Ilulissat,GL,1638054339,69.2167,-51.1,15.58,84,100,12.41
117,Klaksvík,FO,1638054469,62.2266,-6.589,25.72,74,97,8.34
118,Santa Cruz de la Sierra,BO,1638054470,-17.8,-63.1667,80.65,74,40,13.8
119,Priyutnoye,RU,1638054470,46.1011,43.5072,42.98,89,100,11.43
120,Tuktoyaktuk,CA,1638054399,69.4541,-133.0374,-6.05,95,100,16.82
121,Laas,IT,1638054354,46.6166,10.7002,34.54,96,100,2.17
122,Cerrito,CO,1638054471,6.8432,-72.694,55.71,92,93,3.87
123,Mubende,UG,1638054472,0.5606,31.39,59.16,96,70,1.28
124,Pangnirtung,CA,1638054472,66.1451,-65.7125,26.6,39,75,6.91
125,East Retford,GB,1638054473,53.3221,-0.9432,35.53,69,75,19.57
126,Santa Cruz de La Palma,ES,1638054474,28.6835,-17.7642,64.54,63,0,14.97
127,Hithadhoo,MV,1638054333,-0.6,73.0833,81.52,71,39,17.25
128,Clyde River,CA,1638054475,70.4692,-68.5914,-8.95,99,89,5.57
129,Torbay,CA,1638054199,47.6666,-52.7314,47.95,97,100,19.01
130,Lorengau,PG,1638054475,-2.0226,147.2712,82.69,75,100,3.0
131,Mackenzie,CA,1638054317,55.2999,-123.1698,28.62,93,90,9.22
132,Calama,CL,1638054476,-22.4667,-68.9333,66.69,19,7,17.27
133,Tiksi,RU,1638054477,71.6872,128.8694,-5.89,97,100,6.98
134,Hilo,US,1638054313,19.7297,-155.09,80.33,61,1,13.8
135,Lumsden,CA,1638054477,50.6501,-104.8678,21.74,86,6,2.57
136,Marsh Harbour,BS,1638054329,26.5412,-77.0636,72.82,66,38,8.3
137,Bethanien,NA,1638054478,-26.502,17.1583,58.91,44,0,3.2
138,Wairoa,NZ,1638054281,-39.0333,177.3667,69.73,58,100,7.27
139,Murgab,TM,1638054479,37.4966,61.9714,44.89,37,92,5.32
140,Dunmore Town,BS,1638054479,25.5,-76.65,74.5,69,3,8.08
141,Preobrazheniye,RU,1638054479,42.9019,133.9064,32.45,44,1,6.64
142,Pucallpa,PE,1638054480,-8.3791,-74.5539,87.84,62,40,3.44
143,Maryville,US,1638054481,35.7565,-83.9705,49.71,29,40,9.22
144,Road Town,VG,1638054384,18.4167,-64.6167,82.44,78,20,12.66
145,Bambanglipuro,ID,1638054482,-7.95,110.2833,75.88,90,100,6.82
146,Khatanga,RU,1638054319,71.9667,102.5,-7.85,93,100,13.58
147,Belyy Yar,RU,1638054483,53.6039,91.3903,28.29,64,0,17.9
148,Lagoa,PT,1638054483,39.05,-27.9833,60.71,64,88,10.31
149,Penzance,GB,1638054484,50.1186,-5.5371,40.21,60,100,27.92
150,Ambilobe,MG,1638054484,-13.2,49.05,75.69,89,82,1.19
151,Tuatapere,NZ,1638054412,-46.1333,167.6833,59.67,49,26,4.72
152,Nome,US,1638054485,64.5011,-165.4064,-9.33,64,1,10.36
153,Isangel,VU,1638054485,-19.55,169.2667,82.51,78,75,0.0
154,Olavarría,AR,1638054486,-36.8927,-60.3225,58.51,91,96,20.92
155,Mar del Plata,AR,1638054358,-38.0023,-57.5575,61.75,94,98,19.53
156,New Norfolk,AU,1638054335,-42.7826,147.0587,62.1,50,5,2.01
157,Xicoténcatl,MX,1638054487,23.0167,-98.8833,74.88,62,88,4.72
158,Prainha,BR,1638054487,-1.8,-53.48,80.19,68,82,3.74
159,Liwale,TZ,1638054488,-9.7667,37.9333,69.51,93,81,2.01
160,Yārāda,IN,1638054326,17.65,83.2667,79.12,69,75,12.66
161,Champerico,GT,1638054489,14.3,-91.9167,86.54,72,25,7.47
162,Leshukonskoye,RU,1638054379,64.8989,45.7622,-1.88,100,96,1.79
163,Saskylakh,RU,1638054404,71.9167,114.0833,-2.87,92,93,10.18
164,Camacha,PT,1638054490,33.0833,-16.3333,60.22,72,40,17.27
165,Yulara,AU,1638054405,-25.2406,130.9889,73.24,27,0,16.11
166,Ixtapa,MX,1638054490,20.7,-105.2,81.63,69,90,9.22
167,Iqaluit,CA,1638054491,63.7506,-68.5145,21.16,91,100,9.93
168,Sovetskiy,RU,1638054491,61.3614,63.5842,24.39,95,68,6.24
169,Harwich,GB,1638054492,51.9419,1.2844,37.54,86,93,27.25
170,Wakkanai,JP,1638054493,45.4094,141.6739,40.15,62,42,10.45
171,Severo-Kuril'sk,RU,1638054493,50.6789,156.125,28.72,65,77,28.74
172,Fairbanks,US,1638054341,64.8378,-147.7164,-11.24,70,75,0.0
173,Makakilo City,US,1638054494,21.3469,-158.0858,80.92,58,90,12.66
174,Nizhniy Odes,RU,1638054495,63.6445,54.856,1.0,100,95,0.87
175,Dunedin,NZ,1638054495,-45.8742,170.5036,58.12,65,87,9.51
176,Jonuta,MX,1638054496,18.0833,-92.1333,81.45,80,41,3.78
177,Kaya,BF,1638054496,13.0917,-1.0844,79.56,15,22,8.81
178,Pechora,RU,1638054497,65.1472,57.2244,-9.67,99,33,0.96
179,Bétaré Oya,CM,1638054497,5.6,14.0833,68.85,43,91,3.04
180,Geraldton,AU,1638054498,-28.7667,114.6,68.41,42,1,2.3
181,Bulgan,MN,1638054499,48.8125,103.5347,11.34,97,98,0.47
182,Bethel,US,1638054375,41.3712,-73.414,35.96,47,1,5.75
183,Pandamatenga,BW,1638054499,-18.5278,25.627,70.99,54,4,6.38
184,Dikson,RU,1638054385,73.5069,80.5464,-11.06,97,100,8.97
185,Vila,PT,1638054500,42.0304,-8.1588,32.88,93,84,7.05
186,Le Mars,US,1638054500,42.7942,-96.1656,47.71,57,1,16.11
187,Bahir Dar,ET,1638054501,11.5936,37.3908,61.16,79,83,5.19
188,Marabu,MY,1638054501,4.4148,114.0089,77.54,88,100,3.4
189,Hirara,JP,1638054503,24.8,125.2833,73.26,65,100,31.45
190,Eureka,US,1638054234,40.8021,-124.1637,61.99,81,94,5.17
191,Cidreira,BR,1638054449,-30.1811,-50.2056,69.24,95,58,8.61
192,Kavieng,PG,1638054380,-2.5744,150.7967,83.28,70,85,4.52
193,Kusa,RU,1638054505,55.3383,59.4406,14.88,90,97,3.44
194,Yei,SS,1638054506,4.095,30.6779,68.22,83,91,2.64
195,Acapulco de Juárez,MX,1638054330,16.8634,-99.8901,84.02,70,1,8.05
196,Coquimbo,CL,1638054351,-29.9533,-71.3436,62.33,77,0,11.5
197,Tezu,IN,1638054507,27.9167,96.1667,59.67,52,4,4.16
198,Mahébourg,MU,1638054319,-20.4081,57.7,73.69,88,20,3.44
199,Chui,UY,1638054340,-33.6971,-53.4616,66.4,88,69,8.41
200,Río Gallegos,AR,1638054508,-51.6226,-69.2181,50.41,59,100,30.15
201,Sečovce,SK,1638054508,48.7007,21.661,38.59,97,96,2.51
202,Sistranda,NO,1638054509,63.7256,8.834,22.96,63,8,7.25
203,Laguna,US,1638054509,38.421,-121.4238,69.64,46,1,0.0
204,Ribeira Grande,PT,1638054358,38.5167,-28.7,61.93,65,69,9.42
205,Hasaki,JP,1638054510,35.7333,140.8333,39.6,51,0,13.02
206,Marzuq,YE,1638054511,14.4,46.4667,66.43,40,0,3.38
207,Coahuayana Viejo,MX,1638054512,18.7333,-103.6833,87.28,64,44,5.64
208,Bell Ville,AR,1638054513,-32.6259,-62.6887,74.34,57,96,12.62
209,Cherskiy,RU,1638054366,68.75,161.3,-24.93,91,10,3.4
210,Leningradskiy,RU,1638054513,69.3833,178.4167,-19.46,90,3,9.15
211,Touros,BR,1638054354,-5.1989,-35.4608,83.3,75,39,11.07
212,Nouadhibou,MR,1638054344,20.931,-17.0347,68.09,65,22,23.51
213,Los Llanos de Aridane,ES,1638054514,28.6585,-17.9182,60.55,63,0,14.97
214,Namatanai,PG,1638054515,-3.6667,152.4333,83.34,70,70,4.05
215,Nizhnyaya Omka,RU,1638054515,55.4338,74.9426,20.43,92,100,13.33
216,Ukiah,US,1638054001,39.1502,-123.2078,69.8,63,93,2.62
217,Campbellsville,US,1638054516,37.3434,-85.3419,49.6,69,87,8.48
218,Baiyin,CN,1638054516,36.5583,104.2081,30.97,90,9,6.24
219,Kaitangata,NZ,1638054406,-46.2817,169.8464,59.61,51,36,3.47
220,Taltal,CL,1638054322,-25.4,-70.4833,65.77,71,20,2.93
221,Owando,CG,1638054517,-0.4819,15.8999,71.73,95,79,2.64
222,Khanpur,PK,1638054518,28.6453,70.6567,63.61,26,0,8.79
223,San Vicente,AR,1638054518,-26.6167,-54.1333,68.67,72,0,3.31
224,Ternate,ID,1638054519,0.8,127.4,82.04,80,95,3.42
225,Thompson,CA,1638054258,55.7435,-97.8558,18.5,80,92,11.68
226,Narasapuram,IN,1638054520,16.45,81.6667,76.03,84,100,9.69
227,Laichow,CN,1638054520,37.1717,119.9214,42.91,79,100,7.29
228,Korla,CN,1638054521,41.7597,86.1469,26.4,90,36,3.89
229,Siuna,NI,1638054521,13.7332,-84.7773,73.6,89,84,5.06
230,Kilindoni,TZ,1638054522,-7.9139,39.6668,80.19,82,100,13.53
231,Alofi,NU,1638054523,-19.0595,-169.9187,80.67,75,93,10.92
232,Algiers,DZ,1638054252,36.7525,3.042,51.62,66,20,5.75
233,Port Augusta,AU,1638054364,-32.5,137.7667,66.34,37,100,8.93
234,Kumul,CN,1638054523,42.8,93.45,26.24,70,100,11.56
235,Olafsvik,IS,1638054389,64.8945,-23.7142,39.24,87,100,3.24
236,Whitehorse,CA,1638054320,60.7161,-135.0538,5.61,98,100,3.24
237,Machalí,CL,1638054525,-34.1833,-70.6667,70.88,37,40,11.5
238,Tasiilaq,GL,1638054396,65.6145,-37.6368,28.56,88,100,13.31
239,Kota Tinggi,MY,1638054525,1.7381,103.8999,78.75,93,100,2.06
240,Al Bardīyah,LY,1638054526,31.7561,25.0865,70.3,49,9,15.9
241,Lethem,GY,1638054526,3.3803,-59.7968,82.62,67,35,7.31
242,Ulaangom,MN,1638054527,49.9811,92.0667,10.17,71,91,3.98
243,Zaraza,VE,1638054527,9.3503,-65.3245,78.96,79,80,9.4
244,Mattru,SL,1638054528,7.6244,-11.8332,76.19,92,96,3.4
245,Walvis Bay,NA,1638054528,-22.9575,14.5053,59.67,71,0,11.97
246,Udachny,RU,1638054529,66.4167,112.4,-4.02,90,100,7.18
247,Upernavik,GL,1638054415,72.7868,-56.1549,6.04,97,82,6.87
248,Arraial do Cabo,BR,1638054368,-22.9661,-42.0278,73.6,88,88,5.95
249,Chokurdakh,RU,1638054355,70.6333,147.9167,-34.08,100,88,0.31
250,Hambantota,LK,1638054373,6.1241,81.1185,77.23,89,98,8.16
251,Burnie,AU,1638054530,-41.0667,145.9167,57.31,67,0,5.61
252,Ancud,CL,1638054531,-41.8697,-73.8203,54.93,64,8,10.65
253,Tamale,GH,1638054531,9.4008,-0.8393,83.44,23,53,1.39
254,Belmonte,BR,1638054532,-15.8631,-38.8828,79.3,89,96,4.76
255,Goch,DE,1638054532,51.6667,6.1667,37.62,87,75,4.61
256,Anyang,CN,1638054415,36.0994,114.3289,44.98,67,99,3.56
257,Lavrentiya,RU,1638054533,65.5833,-171.0,-10.55,93,4,7.96
258,Stornoway,GB,1638054533,58.2093,-6.3865,35.56,87,90,4.61
259,Iskateley,RU,1638054534,67.6803,53.1512,0.39,93,76,7.4
260,Kaeo,NZ,1638054535,-35.1,173.7833,69.73,61,87,5.75
261,Illapel,CL,1638054535,-31.6308,-71.1653,65.73,55,0,5.66
262,Show Low,US,1638054536,34.2542,-110.0298,52.48,22,1,10.36
263,Madang,PG,1638054536,-5.2246,145.7966,82.63,74,93,1.99
264,Porto Walter,BR,1638054537,-8.2686,-72.7439,80.49,73,100,1.92
265,Constitución,CL,1638054537,-35.3333,-72.4167,56.41,75,1,18.77
266,La Asuncion,VE,1638054298,11.0333,-63.8628,78.94,87,14,9.98
267,Chardara,KZ,1638054538,41.2547,67.9692,38.46,47,7,4.18
268,Faanui,PF,1638054538,-16.4833,-151.75,81.64,73,13,14.83
269,Kahului,US,1638054338,20.8947,-156.47,85.26,57,40,13.8
270,Lékoni,GA,1638054539,-1.5843,14.2591,70.77,92,86,2.84
271,Truro,GB,1638054541,50.2653,-5.0544,40.28,87,75,17.27
272,Hualmay,PE,1638054541,-11.0964,-77.6139,67.08,83,100,9.64
273,Suntar,RU,1638054542,62.1444,117.6319,1.29,87,93,8.32
274,Hokitika,NZ,1638054333,-42.7167,170.9667,57.72,89,100,6.76
275,Churapcha,RU,1638054543,62.0025,132.4325,-3.95,96,100,6.8
276,Codrington,AU,1638054372,-38.2667,141.9667,60.3,60,0,10.83
277,Mossamedes,AO,1638054543,-15.1961,12.1522,68.25,73,70,6.96
278,Vysokogornyy,RU,1638054544,50.1167,139.15,9.82,98,92,3.53
279,Bayevo,RU,1638054544,53.2833,80.7667,19.0,88,100,19.08
280,The Valley,AI,1638054545,18.217,-63.0578,80.74,78,40,4.61
281,Camalú,MX,1638054545,30.85,-116.0667,70.0,42,0,7.18
282,Atbasar,KZ,1638054546,51.8,68.3333,5.94,90,17,7.0
283,Guilin,CN,1638054306,25.2819,110.2864,51.08,76,47,3.98
284,Umba,RU,1638054547,66.6871,34.3429,8.82,96,84,6.89
285,Port Shepstone,ZA,1638054547,-30.7414,30.455,66.6,85,100,17.2
286,Waddān,LY,1638054548,29.1614,16.139,70.63,35,64,3.0
287,Cabano,PH,1638054548,10.5869,122.7002,80.31,82,92,8.39
288,Santa Maria,BR,1638054472,-29.6842,-53.8069,72.73,76,87,4.76
289,Bayan,CN,1638054549,46.0833,127.4,18.48,88,22,6.42
290,Mariehamn,AX,1638054550,60.0973,19.9348,24.66,80,0,6.91
291,Richards Bay,ZA,1638054550,-28.783,32.0377,66.87,70,26,17.56
292,Aksarka,RU,1638054551,66.5606,67.7975,-16.83,100,88,5.5
293,Jagannāthpur,IN,1638054552,22.2333,85.65,57.65,54,91,1.81
294,Fortuna,US,1638054336,40.5982,-124.1573,61.72,88,75,11.5
295,Borger,NL,1638054552,52.9233,6.7931,37.24,98,100,5.28
296,Kiunga,PG,1638054553,-6.1219,141.2906,76.59,88,96,2.55
297,Sakakah,SA,1638054547,29.9697,40.2064,58.48,45,15,6.22
298,Assiut,EG,1638054554,27.181,31.1837,66.06,28,78,3.02
299,Port Blair,IN,1638054554,11.6667,92.75,80.96,75,27,12.64
300,Paamiut,GL,1638054555,61.994,-49.6678,37.17,98,100,10.42
301,Mogzon,RU,1638054555,51.7435,111.9606,9.12,81,100,7.65
302,Universal City,US,1638054342,34.1389,-118.3534,81.88,17,1,5.75
303,Sunyani,GH,1638054556,7.3399,-2.3268,74.17,74,50,4.38
304,Piaçabuçu,BR,1638054557,-10.4056,-36.4344,79.56,78,26,15.39
305,College,US,1638054557,64.8569,-147.8028,-11.25,70,75,0.0
306,Puerto Nariño,CO,1638054558,-3.7703,-70.3831,76.95,71,87,2.64
307,Dubti,ET,1638054559,11.7361,41.0853,81.01,53,0,9.4
308,Wilmington,US,1638054467,34.2257,-77.9447,44.51,61,1,0.0
309,Vila Velha,BR,1638054559,-20.3297,-40.2925,75.15,83,0,9.22
310,San Cristobal,VE,1638054410,7.7669,-72.225,68.41,92,42,0.31
311,Saldanha,ZA,1638054560,-33.0117,17.9442,62.4,95,65,15.7
312,Uncia,BO,1638054560,-18.467,-66.5685,57.97,42,87,15.79
313,La Santisima Trinidad,BO,1638054561,-14.8333,-64.9,84.18,79,40,3.44
314,Zyryanovsk,KZ,1638054561,49.7386,84.2719,-7.01,95,98,1.81
315,Lichinga,MZ,1638054562,-13.3128,35.2406,58.24,86,8,6.64
316,Boyolangu,ID,1638054562,-8.1181,111.8935,76.75,89,100,3.6
317,Dandong,CN,1638054530,40.1292,124.3947,32.9,61,31,4.27
318,Kruisfontein,ZA,1638054563,-34.0033,24.7314,59.76,76,55,4.85
319,Ostrovnoy,RU,1638054564,68.0531,39.5131,9.82,85,18,8.72
320,Mormugao,IN,1638054564,15.4,73.8,73.22,64,75,8.9
321,Topolovgrad,BG,1638054565,42.0833,26.3333,51.87,88,94,10.74
322,Zhangye,CN,1638054345,38.9342,100.4517,23.67,60,83,4.27
323,Katangli,RU,1638054566,51.7102,143.2326,23.63,76,11,15.64
324,Stromness,GB,1638054566,58.965,-3.296,32.25,53,100,13.91
325,Margate,GB,1638054567,51.3813,1.3862,38.91,86,93,34.69
326,Verkhoyansk,RU,1638054568,67.5447,133.385,-6.25,99,100,2.01
327,Průhonice,CZ,1638054568,49.9996,14.5502,34.57,85,100,3.62
328,Banjar,ID,1638054569,-8.19,114.9675,78.66,90,100,6.73
329,Guerrero Negro,MX,1638054570,27.9769,-114.0611,73.38,46,0,13.78
330,São Filipe,CV,1638054571,14.8961,-24.4956,77.77,72,34,12.26
331,Gamba,GA,1638054571,-2.65,10.0,75.65,90,100,1.5
332,Kyaikkami,MM,1638054572,16.08,97.5675,76.03,75,97,8.03
333,Mandurah,AU,1638054572,-32.55,115.7,70.05,48,0,3.33
334,Japura,ID,1638054573,-0.3167,102.35,74.28,91,99,1.1
335,Cockburn Town,TC,1638054573,21.4612,-71.1419,79.59,65,28,11.77
336,Berlevåg,NO,1638054574,70.8578,29.0864,20.21,82,63,15.52
337,Tosya,TR,1638054574,41.0155,34.0401,49.08,97,100,2.93
338,Thinadhoo,MV,1638054575,0.5333,72.9333,81.77,70,83,17.47
339,Omboué,GA,1638054575,-1.5746,9.2618,75.04,95,100,2.59
340,Haines Junction,CA,1638054576,60.7522,-137.5108,7.72,95,100,2.01
341,Krasnosel'kup,RU,1638054576,65.7,82.4667,5.79,95,100,10.8
342,Katsuura,JP,1638054390,35.1333,140.3,46.51,54,0,15.48
343,Norman Wells,CA,1638054577,65.282,-126.8329,-16.19,97,93,5.79
344,Husavik,IS,1638054392,66.0449,-17.3389,27.16,87,86,7.54
345,Nyagan,RU,1638054578,62.1406,65.3936,25.25,84,75,11.77
346,Oktyabr'skoye,RU,1638054578,43.0645,44.7417,24.94,100,99,2.24
347,Bembèrèkè,BJ,1638054578,10.2283,2.6634,73.2,18,80,3.47
348,Herat Province,AF,1638054579,34.5,62.0,46.53,57,81,2.17
349,Berdigestyakh,RU,1638054580,62.0989,126.6992,1.83,92,100,9.86
350,Tombouctou,ML,1638054580,20.0,-3.0,77.63,21,98,5.46
351,Vila Franca do Campo,PT,1638054581,37.7167,-25.4333,59.41,79,8,7.05
352,Grindavik,IS,1638054581,63.8424,-22.4338,34.27,100,75,2.3
353,Farmington,US,1638054491,36.7281,-108.2187,56.59,25,1,0.0
354,Svetlaya,RU,1638054582,46.5389,138.3297,22.98,72,2,9.75
355,Beatrice,US,1638054583,40.2681,-96.747,57.18,41,1,18.41
356,San Alberto,CO,1638054583,7.7611,-73.3922,78.06,88,58,3.62
357,Vardø,NO,1638054584,70.3705,31.1107,24.51,77,58,11.72
358,Te Anau,NZ,1638054584,-45.4167,167.7167,56.97,58,83,2.33
359,Tateyama,JP,1638054585,34.9833,139.8667,46.42,45,0,15.5
360,Bambous Virieux,MU,1638054367,-20.3428,57.7575,73.65,88,20,3.44
361,Mount Gambier,AU,1638054586,-37.8333,140.7667,60.19,53,5,8.03
362,Yur’yevets,RU,1638054586,57.3201,43.1041,32.25,97,100,21.63
363,Kedrovoye,RU,1638054587,57.1576,60.5698,29.64,86,100,10.92
364,Iida,JP,1638054587,35.5197,137.8207,37.06,56,2,3.74
365,Lokosovo,RU,1638054588,61.1333,74.8167,28.94,96,99,14.81
366,Botou,CN,1638054588,38.0667,116.5667,43.93,71,100,6.35
367,Ambon City,ID,1638054589,-3.6954,128.1814,78.94,89,20,5.75
368,Cayenne,GF,1638054589,4.9333,-52.3333,80.64,89,75,4.61
369,Mikhaylovka,RU,1638054590,50.06,43.2379,37.56,95,100,15.05
370,Liverpool,GB,1638054489,53.4106,-2.9779,35.55,55,0,14.97
371,Beloha,MG,1638054591,-25.1667,45.05,59.79,65,0,8.43
372,Neiafu,TO,1638054591,-18.65,-173.9833,83.08,83,40,10.36
373,Kavaratti,IN,1638054349,10.5669,72.642,81.5,77,100,9.24
374,Petropavlovsk-Kamchatskiy,RU,1638054592,53.0452,158.6483,18.19,63,40,13.42
375,Tupik,RU,1638054592,54.4253,119.9327,5.59,94,100,3.24
376,Kaabong,UG,1638054592,3.4836,34.1492,66.92,76,49,11.92
377,Oromocto,CA,1638054593,45.8351,-66.4792,26.53,86,75,16.11
378,Praia,CV,1638054594,14.9215,-23.5087,75.74,73,40,20.71
379,Baishishan,CN,1638054594,43.5833,127.5667,18.07,85,4,2.91
380,Pevek,RU,1638054343,69.7008,170.3133,-13.31,83,7,4.14
381,Bereda,ES,1638054595,43.2686,-7.5406,44.35,86,81,6.44
382,Pisco,PE,1638054374,-13.7,-76.2167,68.05,77,0,17.27
383,Kailua,US,1638054595,21.4022,-157.7394,82.38,69,75,9.22
384,Ponta Delgada,PT,1638054596,37.7333,-25.6667,59.72,72,75,3.44
385,Seoul,KR,1638054354,37.5683,126.9778,31.44,38,0,2.62
386,Bestöbe,KZ,1638054596,52.4994,73.0975,17.06,84,41,18.07
387,Lázaro Cárdenas,MX,1638054597,17.9583,-102.2,82.11,67,14,7.83
388,Itoman,JP,1638054597,26.1247,127.6694,70.18,56,75,17.27
389,Verkhnyaya Toyma,RU,1638054598,62.2349,44.9985,19.35,96,100,6.17
390,Vanavara,RU,1638054598,60.34,102.2797,6.8,95,100,6.46
391,Erzin,TR,1638054599,36.9559,36.2,55.92,63,100,3.91
392,Saint-Augustin,CA,1638054599,51.226,-58.6502,43.99,80,99,11.5
393,Sīrjān,IR,1638054600,29.452,55.6814,52.27,47,2,0.34
394,Slonim,BY,1638054600,53.0867,25.3219,35.2,79,100,8.57
395,Parabel',RU,1638054601,58.6978,81.4825,25.56,92,100,12.33
396,Tual,ID,1638054601,-5.6667,132.75,82.76,71,99,4.76
397,Overpelt,BE,1638054517,51.2107,5.4139,38.17,93,90,4.61
398,Kropotkin,RU,1638054602,45.4375,40.5756,46.53,69,100,8.88
399,Trivandrum,IN,1638054603,8.4833,76.9167,78.78,89,75,3.44
400,Esperance,AU,1638054603,-33.8667,121.9,67.06,54,0,14.43
401,Mazagão,BR,1638054604,-0.115,-51.2894,80.65,88,45,4.72
402,Saint Anthony,US,1638054380,45.0205,-93.218,40.93,51,1,8.05
403,Lerwick,GB,1638054605,60.1545,-1.1494,33.8,58,100,15.35
404,Krapivinskiy,RU,1638054605,54.9992,86.8133,20.84,93,100,13.76
405,Henderson,US,1638054606,36.0397,-114.9819,71.04,7,1,0.0
406,Nishihara,JP,1638054608,26.1842,127.7558,69.46,56,75,17.27
407,Coronel Vivida,BR,1638054608,-25.9797,-52.5678,64.56,88,0,4.23
408,Rome,US,1638054609,34.257,-85.1647,54.01,46,1,3.44
409,Hashtrūd,IR,1638054609,37.4779,47.0508,40.01,57,100,2.86
410,Heubach,DE,1638054610,48.7927,9.9337,31.08,91,75,3.33
411,Malé,MV,1638054109,4.1748,73.5089,80.19,80,100,15.5
412,Jirkov,CZ,1638054610,50.4998,13.4477,33.35,97,100,1.52
413,Oleksandrivka,UA,1638054611,46.8383,32.7612,47.88,91,0,7.85
414,Manokwari,ID,1638054163,-0.8667,134.0833,80.98,80,100,7.96
415,Mandera,KE,1638054611,3.9366,41.867,79.27,68,50,7.47
416,Maunabo,PR,1638054612,18.0072,-65.8993,82.22,83,11,9.08
417,Poum,NC,1638054612,-20.2333,164.0167,80.67,74,1,6.29
418,Diamantino,BR,1638054613,-14.4086,-56.4461,79.56,76,100,0.72
419,Ravne,SI,1638054613,45.9625,15.0128,38.35,98,100,3.09
420,Paithan,IN,1638054614,19.4833,75.3833,64.2,60,97,7.05
421,Berezovyy,RU,1638054614,51.6667,135.7,14.04,95,100,1.12
422,São José da Coroa Grande,BR,1638054615,-8.8978,-35.1478,79.88,75,60,13.31
423,Ajdabiya,LY,1638054616,30.7554,20.2263,71.78,33,26,10.47
424,Massena,US,1638054339,44.9281,-74.8919,26.89,63,1,12.66
425,Pangody,RU,1638054616,65.85,74.4859,1.8,99,99,3.67
426,Kalemie,CD,1638054617,-5.9475,29.1947,69.89,78,59,2.82
427,Kawambwa,ZM,1638054617,-9.7915,29.0791,61.88,94,24,5.82
428,Port Hedland,AU,1638054618,-20.3167,118.5667,91.45,16,9,24.16
429,Tevriz,RU,1638054618,57.509,72.4042,27.95,91,100,10.33
430,Takapau,NZ,1638054619,-40.0333,176.35,66.74,58,100,1.32
431,Bowen,AU,1638054619,-20.0167,148.2333,82.53,69,0,7.16
432,Tambun,ID,1638054620,-6.2641,107.0712,75.24,88,40,6.91
433,Lüderitz,NA,1638054365,-26.6481,15.1594,60.06,87,0,4.32
434,Kipushi,CD,1638054621,-11.7667,27.2333,60.17,97,71,3.87
435,Sidi Ali,DZ,1638054621,36.0998,0.4206,51.04,60,94,21.3
436,Potsdam,DE,1638054622,52.3989,13.0657,35.73,93,100,5.73
437,Sohāgpur,IN,1638054622,22.7,78.2,59.74,44,80,4.52
438,Inta,RU,1638054623,66.0317,60.1659,-11.0,98,55,5.32
439,Half Moon Bay,US,1638054623,37.4636,-122.4286,69.98,49,1,8.05
440,Lata,PT,1638054624,40.1629,-8.3327,41.09,69,0,4.23
441,Saint Simons,US,1638054624,31.1352,-81.3901,53.64,78,1,0.0
442,Vostok,RU,1638054343,46.4856,135.8833,6.4,96,61,4.79
443,Broken Hill,AU,1638054625,-31.95,141.4333,66.92,50,9,16.31
444,Maricá,BR,1638054625,-22.9194,-42.8186,78.71,90,91,5.99
445,Upata,VE,1638054626,8.0086,-62.3989,72.95,93,93,4.23
446,Atocha,BO,1638054626,-20.9333,-66.2333,56.91,42,100,9.4
447,Raudeberg,NO,1638054627,61.9875,5.1352,27.27,55,4,6.85
448,São Sebastião,BR,1638054627,-23.76,-45.4097,72.86,90,47,3.4
449,Madimba,TZ,1638054628,-10.4,40.3333,79.05,75,100,13.76
450,Rock Sound,BS,1638054628,24.9,-76.2,75.43,63,6,9.69
451,Takoradze,GH,1638054322,4.8845,-1.7554,79.38,83,98,7.74
452,Itaituba,BR,1638054371,-4.2761,-55.9836,76.51,90,91,2.19
453,San Juan,AR,1638054628,-31.5375,-68.5364,73.65,46,99,28.23
454,Celestún,MX,1638054630,20.8667,-90.4,77.38,69,36,11.07
455,Indramayu,ID,1638054630,-6.3264,108.32,76.87,87,100,11.1
456,Neuruppin,DE,1638054630,52.9282,12.8031,35.85,98,100,5.79
457,Lowestoft,GB,1638054631,52.4752,1.7516,43.05,87,96,27.02
458,Chapais,CA,1638054631,49.7834,-74.8492,18.77,84,100,14.27
459,Qaqortoq,GL,1638054351,60.7167,-46.0333,39.7,99,100,3.76
460,Burgas,BG,1638054632,42.5061,27.4678,51.91,93,0,3.44
461,Nha Trang,VN,1638054633,12.25,109.1833,75.2,94,100,8.59
462,Hailar,CN,1638054633,49.2,119.7,5.88,97,98,3.09
463,El Ocotito,MX,1638054634,17.25,-99.5667,76.33,65,5,3.4
464,Coyhaique,CL,1638054439,-45.5752,-72.0662,57.15,41,75,9.22
465,Tadine,NC,1638054635,-21.55,167.8833,76.66,85,100,14.63
466,Gushi,CN,1638054377,34.6425,109.5843,40.68,67,7,4.0
467,Joshīmath,IN,1638054635,30.5667,79.5667,44.73,22,0,7.05
468,Chicama,PE,1638054636,-7.8447,-79.1469,63.14,76,86,8.95
469,Cairns,AU,1638054636,-16.9167,145.7667,85.95,70,75,3.44
470,Nador,MA,1638054577,35.174,-2.9287,59.25,63,75,16.11
471,Wajir,KE,1638054382,1.7471,40.0573,77.77,73,100,13.27
472,Kiryat Gat,IL,1638054637,31.61,34.7642,59.68,42,19,2.66
473,Amparafaravola,MG,1638054637,-17.5833,48.2167,68.88,92,99,3.09
474,Nikol'sk,RU,1638054638,53.7189,46.0712,31.03,96,100,18.23
475,Atyrau,KZ,1638054639,47.1167,51.8833,35.62,51,40,17.9
476,San Antonio,US,1638054634,29.4241,-98.4936,53.35,85,90,0.0
477,Matagami,CA,1638054639,49.7502,-77.6328,15.21,93,100,9.91
478,Diego de Almagro,CL,1638054640,-26.3667,-70.05,71.49,24,0,8.52
479,Mbaïki,CF,1638054641,3.8678,17.9892,72.81,52,100,1.86
480,Stephenville,US,1638054642,32.2207,-98.2023,52.41,93,90,3.44
481,Sarankhola,BD,1638054642,22.3082,89.7897,60.28,71,21,4.41
482,Kirakira,SB,1638054643,-10.4544,161.9205,84.47,72,75,6.93
483,Sangar,RU,1638054644,63.9242,127.4739,-13.99,100,100,2.59
484,Carquefou,FR,1638054644,47.2982,-1.4902,39.99,87,75,9.22
485,Victor Harbor,AU,1638054645,-35.5667,138.6167,66.29,59,0,8.79
486,Comodoro Rivadavia,AR,1638054645,-45.8667,-67.5,62.46,29,0,12.66
487,De-Kastri,RU,1638054646,51.4667,140.7833,16.57,89,38,6.22
488,Darfo,IT,1638054647,45.8779,10.1812,44.92,99,100,1.34
489,Guayaquil,EC,1638054448,-2.1667,-79.9,80.56,65,40,11.5
490,Sechura,PE,1638054648,-5.5569,-80.8222,71.8,65,41,17.94
491,Yuzhno-Kurilsk,RU,1638054650,44.0306,145.8556,37.8,65,100,21.97
492,Nordborg,DK,1638054650,55.0573,9.7408,39.09,87,75,9.22
493,Ningyang,CN,1638054650,35.7642,116.7914,43.57,83,100,5.73
494,Konstantinovka,RU,1638054651,49.6167,127.9833,8.78,97,81,4.07
495,Changping,CN,1638054651,40.2186,116.2197,35.24,61,84,2.89
496,Bonthe,SL,1638054652,7.5264,-12.505,80.24,81,73,4.14
497,Bathsheba,BB,1638054387,13.2167,-59.5167,81.21,78,20,12.66
498,Ouadda,CF,1638054653,8.0777,22.4007,69.26,31,57,3.31
499,Araouane,ML,1638054653,18.9048,-3.5265,76.96,22,100,1.61
500,Xining,CN,1638054521,36.6167,101.7667,28.76,38,20,1.7
501,Mineiros,BR,1638054654,-17.5694,-52.5511,70.92,88,66,3.49
502,Aranos,NA,1638054654,-24.1333,19.1167,66.72,9,0,9.31
503,Novobirilyussy,RU,1638054655,56.9514,90.6661,20.59,93,100,12.75
504,Scarborough,GB,1638054655,54.2797,-0.4044,35.17,65,98,27.11
505,Pasni,PK,1638054656,25.2631,63.471,74.39,33,1,12.12
506,Fomboni,KM,1638054656,-12.28,43.7425,80.08,79,96,18.03
507,Mirny,RU,1638054657,62.5353,113.9611,-4.68,94,77,9.35
508,Nosy Varika,MG,1638054658,-20.5833,48.5333,69.87,93,99,13.78
509,Mitsamiouli,KM,1638054658,-11.3847,43.2844,80.02,80,100,9.4
510,Ak-Dovurak,RU,1638054659,51.1833,90.6,4.78,78,100,1.36
511,Camaná,PE,1638054659,-16.6228,-72.7111,67.51,81,79,8.14
512,Hope,US,1638054660,33.6671,-93.5916,53.65,42,100,7.43
513,Langå,DK,1638054660,56.3903,9.8949,37.51,98,100,4.97
514,Atherton,GB,1638054661,53.5237,-2.4935,35.15,62,22,10.89
515,Cap-aux-Meules,CA,1638054661,47.3821,-61.8597,37.45,75,75,23.02
516,Nanortalik,GL,1638054662,60.1432,-45.2371,43.2,97,100,15.75
517,Palmeiras de Goiás,BR,1638054662,-16.805,-49.9258,73.17,87,84,4.72
518,Puerto Colombia,CO,1638054663,10.9878,-74.9547,80.55,81,35,15.03
519,Shirokiy,RU,1638054664,49.758,129.523,3.97,96,98,4.16
520,San Clemente,US,1638054513,33.427,-117.612,83.91,43,4,4.27
521,Hīt,IQ,1638054664,33.6416,42.8251,61.9,45,100,7.94
522,Acajutla,SV,1638054338,13.5928,-89.8275,83.08,57,36,4.56
523,Boa Vista,BR,1638054665,2.8197,-60.6733,82.38,74,40,4.61
524,Sabzawār,IR,1638054435,36.2126,57.6819,45.72,56,6,0.18
525,Ures,MX,1638054666,29.4333,-110.4,75.33,31,0,3.83
526,Sinop Province,TR,1638054666,41.7711,34.8709,52.14,84,100,13.2
527,Madingou,CG,1638054667,-4.1536,13.55,71.85,95,100,0.78
528,Tomatlán,MX,1638054668,19.9333,-105.25,81.63,61,15,6.76
529,Corbu,RO,1638054668,44.3833,28.65,40.32,100,0,1.14
530,Leander,US,1638054417,30.5788,-97.8531,52.12,100,90,3.44
531,Qalyub,EG,1638054669,30.1792,31.2056,68.25,34,53,2.04
532,Kenai,US,1638054669,60.5544,-151.2583,6.89,78,90,0.0
533,Monkey Bay,MW,1638054670,-14.0728,34.9201,73.45,70,9,19.91
534,Baykit,RU,1638054670,61.67,96.37,-5.67,100,98,1.95
535,Murud,IN,1638054671,18.3258,72.965,74.35,62,44,4.97
536,Kostanay,KZ,1638054672,53.1667,63.5833,8.89,85,0,8.95
537,Mana,GF,1638054672,5.6592,-53.7767,78.48,86,51,9.93
538,Quatre Cocos,MU,1638054673,-20.2078,57.7625,73.51,72,7,5.82
539,Valavanur,IN,1638054674,11.9209,79.5824,73.29,96,100,7.25
540,Shangrao,CN,1638054674,28.4532,117.9686,49.73,88,0,5.19
541,Ust-Tsilma,RU,1638054675,65.441,52.1498,-7.82,100,57,1.12
542,Gonder,ET,1638054675,12.6,37.4667,58.75,60,24,6.35
543,Les Escoumins,CA,1638054676,48.1111,-69.0236,25.95,81,100,17.49
544,Sungai Besar,MY,1638054677,3.6746,100.9867,76.21,90,93,4.09
545,Tres Arroyos,AR,1638054677,-38.3739,-60.2798,57.52,97,100,12.8
546,Narsaq,GL,1638054678,60.9167,-46.05,39.42,99,100,5.23
547,Nobres,BR,1638054678,-14.7203,-56.3275,81.45,73,99,1.19
548,Havre-St-Pierre,CA,1638054679,50.2334,-63.5986,41.36,87,90,11.5
549,Lensk,RU,1638054679,60.7253,114.9278,3.7,90,99,9.04
550,Tabuk,PH,1638054680,17.4189,121.4443,72.91,92,99,1.77
551,Vanimo,PG,1638054680,-2.6741,141.3028,78.17,84,100,4.61
552,Lodja,CD,1638054681,-3.4833,23.4333,66.45,91,95,1.01
553,Yumen,CN,1638054681,40.2833,97.2,25.43,52,100,16.46
554,Prince Rupert,CA,1638054682,54.3161,-130.3201,48.29,87,90,18.41
555,Vikhorevka,RU,1638054682,56.1201,101.1636,13.59,90,100,7.52
556,Verkhniy Avzyan,RU,1638054683,53.5289,57.5372,2.97,92,36,2.28
557,Rio Grande,BR,1638054393,-32.035,-52.0986,68.88,92,71,12.57
558,Vilcún,CL,1638054683,-38.65,-72.2333,54.34,57,20,7.29
559,Amaigbo,NG,1638054684,5.7892,7.8383,75.63,91,65,4.94
560,Broome,US,1638054684,42.2506,-75.833,29.17,63,90,5.75
561,Baft,IR,1638054685,29.234,56.6057,46.63,52,4,1.88
562,Acandí,CO,1638054685,8.5063,-77.2778,77.59,91,54,4.18
563,Castelo Branco,PT,1638054686,39.8222,-7.4909,39.42,61,12,7.16
564,Nyuksenitsa,RU,1638054686,60.4128,44.2397,31.32,97,100,8.01
565,Iquique,CL,1638054687,-20.2208,-70.1431,66.24,78,31,3.87
566,Kamina,CD,1638054687,-8.7386,24.9906,62.53,97,80,2.01
567,Nemuro,JP,1638054688,43.3236,145.575,37.36,69,69,16.11
568,Vigrestad,NO,1638054689,58.5667,5.7,31.68,73,97,4.27
569,Viedma,AR,1638054689,-40.8135,-62.9967,64.76,77,100,2.37
570,Pimentel,PE,1638054690,-6.8367,-79.9342,70.09,73,0,21.85
571,Acarí,PE,1638054690,-15.4311,-74.6158,70.38,75,95,5.66
572,Danjiangkou,CN,1638054691,32.5428,111.5086,46.2,63,97,1.32
573,Matai,TZ,1638054554,-8.3,31.5167,59.59,95,62,5.46
574,Ambovombe,MG,1638054691,-25.1667,46.0833,62.8,62,5,10.07
575,Huilong,CN,1638054692,31.8111,121.655,56.16,70,42,9.19
576,Jizan,SA,1638054693,17.3333,42.6667,81.32,72,0,3.53
577,Rottingdean,GB,1638054694,50.8098,-0.0594,37.69,79,100,30.15
